City_ID,City,Country,Lat,Lng,Max Temp,Humidity,Cloudiness,Wind Speed,Current Description
0,Hermanus,ZA,-34.4187,19.2345,61.81,87,1,8.59,clear sky
1,Saint-Leu,RE,-21.15,55.2833,74.26,79,99,2.26,light rain
2,Cape Town,ZA,-33.9258,18.4232,64.9,81,0,13.8,clear sky
3,Grindavik,IS,63.8424,-22.4338,40.95,100,75,16.11,broken clouds
4,Gold Coast,AU,-28.0,153.4333,71.01,90,75,6.91,broken clouds
5,Yuli,NG,9.6989,10.2744,89.01,19,100,5.68,overcast clouds
6,Waipawa,NZ,-41.4122,175.5153,53.38,86,14,2.66,few clouds
7,Komsomolskiy,UZ,40.4272,71.7189,57.92,62,100,6.91,overcast clouds
8,Busselton,AU,-33.65,115.3333,62.58,81,51,16.98,broken clouds
9,Vaini,TO,-21.2,-175.2,73.56,100,100,5.75,light intensity shower rain
10,Keti Bandar,PK,24.1447,67.4497,78.19,68,29,9.86,scattered clouds
11,Atuona,PF,-9.8,-139.0333,79.95,72,83,21.14,broken clouds
12,Castro,BR,-24.7911,-50.0119,71.73,80,69,4.59,broken clouds
13,Barrow,US,71.2906,-156.7887,-11.07,97,55,14.05,broken clouds
14,Buchanan,LR,5.8808,-10.0467,79.5,85,86,8.43,overcast clouds
15,Ushuaia,AR,-54.8,-68.3,38.86,81,40,31.07,light rain
16,Kapaa,US,22.0752,-159.319,78.78,76,81,10.0,broken clouds
17,Bredasdorp,ZA,-34.5322,20.0403,61.47,88,56,2.28,broken clouds
18,Whitley Bay,GB,55.0397,-1.4471,44.82,77,20,19.57,light rain
19,Punta Arenas,CL,-53.15,-70.9167,41.11,87,40,23.02,light intensity shower rain
20,Tura,IN,25.5198,90.2201,69.84,94,11,6.31,few clouds
21,Labuhan,ID,-6.8844,112.2051,75.49,90,100,9.31,overcast clouds
22,Jacksonville,US,30.3322,-81.6556,81.1,40,0,12.66,clear sky
23,Hasaki,JP,35.7333,140.8333,48.29,75,98,21.16,light rain
24,Nikolskoye,RU,59.7035,30.7861,29.71,96,35,2.95,scattered clouds
25,Mataura,NZ,-46.1927,168.8643,46.13,95,98,2.01,overcast clouds
26,Belomorsk,RU,64.5232,34.7668,19.17,96,100,5.19,overcast clouds
27,Bluff,NZ,-46.6,168.3333,56.23,75,98,12.28,overcast clouds
28,Arraial Do Cabo,BR,-22.9661,-42.0278,82.36,74,40,12.66,scattered clouds
29,Upernavik,GL,72.7868,-56.1549,18.46,86,46,3.96,scattered clouds
30,Port Hardy,CA,50.6996,-127.4199,42.98,87,100,3.44,light intensity shower rain
31,Cururupu,BR,-1.8283,-44.8683,81.16,77,75,5.39,broken clouds
32,Bambous Virieux,MU,-20.3428,57.7575,80.22,83,75,11.5,broken clouds
33,Vologda,RU,59.2187,39.8886,16.77,92,17,6.51,few clouds
34,Mount Isa,AU,-20.7333,139.5,73.17,25,100,5.75,light rain
35,Ponferrada,ES,42.5466,-6.5962,40.46,51,39,5.32,scattered clouds
36,Rikitea,PF,-23.1203,-134.9692,76.71,66,56,10.27,broken clouds
37,Sharan,RU,54.8167,54.0,39.76,95,100,9.42,overcast clouds
38,Sao Gabriel Da Cachoeira,BR,-0.1303,-67.0892,82.11,84,66,1.95,broken clouds
39,Papara,BR,-3.9839,-38.7273,81.68,91,48,3.85,scattered clouds
40,Pudozh,RU,61.8099,36.5345,8.91,97,86,2.04,overcast clouds
41,Kirakira,SB,-10.4544,161.9205,80.71,83,100,10.67,overcast clouds
42,Verkh-Usugli,RU,52.7,115.1667,12.15,75,64,3.04,broken clouds
43,Sorkjosen,NO,69.8,20.9333,15.8,73,36,2.3,scattered clouds
44,Valparaiso,CL,-33.0393,-71.6273,77.23,52,0,13.8,clear sky
45,Eydhafushi,MV,5.1033,73.0708,82.74,68,1,2.62,clear sky
46,Laurel,US,39.0993,-76.8483,57.02,48,100,14.97,overcast clouds
47,East London,ZA,-33.0153,27.9116,72.39,89,100,15.41,overcast clouds
48,New Norfolk,AU,-42.7826,147.0587,56.7,89,99,1.03,overcast clouds
49,Oyama,JP,36.3,139.8,47.59,85,100,6.69,light rain
50,Airai,TL,-8.9266,125.4092,56.95,77,20,1.16,few clouds
51,Raudeberg,NO,61.9875,5.1352,34.47,92,100,4.72,light snow
52,Georgetown,MY,5.4112,100.3354,78.73,93,20,2.3,few clouds
53,Raymondville,US,26.4815,-97.7831,87.1,44,0,14.79,clear sky
54,Hobart,AU,-42.8794,147.3294,57.06,94,100,6.91,overcast clouds
55,Kohlu,PK,29.8962,69.252,66.78,8,78,2.66,broken clouds
56,Thompson,CA,55.7435,-97.8558,37.56,48,100,11.5,overcast clouds
57,Kodiak,US,57.79,-152.4072,36.91,75,100,9.22,light snow
58,Ust-Ilimsk,RU,58.0006,102.6619,10.78,98,99,3.11,overcast clouds
59,Sioux Lookout,CA,50.1001,-91.917,37.47,60,100,3.44,overcast clouds
60,Sakakah,SA,29.9697,40.2064,78.37,11,6,8.41,clear sky
61,Pevek,RU,69.7008,170.3133,-19.73,96,24,2.28,few clouds
62,San Patricio,US,28.017,-97.5169,87.17,43,0,14.03,clear sky
63,Qaanaaq,GL,77.484,-69.3632,14.67,75,92,6.04,overcast clouds
64,Hithadhoo,MV,-0.6,73.0833,83.03,69,53,4.81,broken clouds
65,Isangel,VU,-19.55,169.2667,80.24,84,100,8.39,overcast clouds
66,Saint-Philippe,RE,-21.3585,55.7679,74.79,91,100,13.73,heavy intensity rain
67,Puerto Escondido,MX,15.85,-97.0667,87.17,48,4,8.77,clear sky
68,Sosnogorsk,RU,63.6023,53.8817,23.22,94,100,10.31,light snow
69,San Cristobal,VE,7.7669,-72.225,82.58,49,43,6.51,scattered clouds
70,Kemijarvi,FI,66.7131,27.4306,15.31,97,85,2.04,overcast clouds
71,Albany,US,42.6001,-73.9662,41.63,86,100,0.94,moderate rain
72,Vao,NC,-22.6667,167.4833,79.11,87,88,19.28,overcast clouds
73,Prince Rupert,CA,54.3161,-130.3201,42.89,70,75,26.46,broken clouds
74,Severo-Kurilsk,RU,50.6789,156.125,30.2,87,23,11.59,few clouds
75,Cherskiy,RU,68.75,161.3,-2.67,98,100,3.6,overcast clouds
76,Lebu,CL,-37.6167,-73.65,56.89,63,0,18.63,clear sky
77,Saint George,US,37.1041,-113.5841,75.63,21,100,1.99,overcast clouds
78,Khatanga,RU,71.9667,102.5,-29.15,100,99,4.09,overcast clouds
79,Agadez,NE,19.75,10.25,87.39,5,0,6.15,clear sky
80,Carnarvon,AU,-24.8667,113.6333,77.07,83,40,12.66,scattered clouds
81,Ribeira Grande,PT,38.5167,-28.7,63.0,72,20,13.8,few clouds
82,Puerto Ayora,EC,-0.7393,-90.3518,85.96,76,45,11.61,light rain
83,Tiksi,RU,71.6872,128.8694,4.77,98,100,8.01,overcast clouds
84,Geraldton,AU,-28.7667,114.6,72.01,88,75,16.11,broken clouds
85,Le Mans,FR,48.0,0.2,42.73,65,0,6.91,clear sky
86,Esperance,AU,-33.8667,121.9,62.44,92,100,7.54,light rain
87,Mae Sai,TH,20.4335,99.8762,66.63,66,11,1.66,few clouds
88,Provideniya,RU,64.3833,-173.3,2.8,74,0,11.5,clear sky
89,Avarua,CK,-21.2078,-159.775,78.85,89,100,3.44,overcast clouds
90,Wucheng,CN,29.6008,118.175,48.99,80,85,2.95,overcast clouds
91,Hilo,US,19.7297,-155.09,76.24,94,32,4.0,moderate rain
92,Chapais,CA,49.7834,-74.8492,38.98,85,100,5.99,overcast clouds
93,Puerto Leguizamo,CO,-0.1934,-74.7819,84.78,63,99,2.57,overcast clouds
94,Kotelnich,RU,58.3089,48.348,28.02,94,99,8.77,overcast clouds
95,Ostrovnoy,RU,68.0531,39.5131,15.84,92,100,6.58,overcast clouds
96,Jalu,LY,29.0331,21.5482,78.8,13,9,11.14,clear sky
97,Sao Caetano De Odivelas,BR,-0.75,-48.02,79.7,87,100,7.92,heavy intensity rain
98,Rawson,AR,-43.3002,-65.1023,62.29,26,13,15.77,few clouds
99,Belyy Yar,RU,53.6039,91.3903,35.85,93,40,8.95,light rain
100,Richards Bay,ZA,-28.783,32.0377,75.47,84,97,10.76,overcast clouds
101,Waspan,NI,14.7419,-83.9717,90.54,44,59,6.53,broken clouds
102,Sola,VU,-13.8833,167.55,79.29,72,100,9.6,overcast clouds
103,Saint Anthony,US,45.0205,-93.218,43.25,70,100,8.05,light snow
104,Bandarbeyla,SO,9.4942,50.8122,79.29,75,94,4.45,overcast clouds
105,Codrington,AU,-38.2667,141.9667,58.39,85,100,5.39,overcast clouds
106,San Jose,US,37.3394,-121.895,79.48,36,0,10.36,clear sky
107,Villa Carlos Paz,AR,-31.4241,-64.4978,75.06,26,0,8.01,clear sky
108,Bordighera,IT,43.7806,7.6645,48.09,71,14,7.31,light rain
109,Ambulu,ID,-8.345,113.6058,74.32,92,6,3.33,clear sky
110,Tieli,CN,46.95,128.05,45.55,46,2,14.79,clear sky
111,Surt,LY,31.2089,16.5887,62.82,77,0,15.79,clear sky
112,Vila,PT,42.0304,-8.1588,40.08,73,22,5.1,few clouds
113,Araguari,BR,-18.6472,-48.1872,80.11,54,3,4.68,clear sky
114,Port Elizabeth,ZA,-33.918,25.5701,64.31,91,0,8.05,clear sky
115,Mahon,ES,39.8885,4.2658,46.96,61,0,14.97,clear sky
116,Namibe,AO,-15.1961,12.1522,70.88,80,100,8.79,overcast clouds
117,Watford,GB,51.6553,-0.396,45.79,60,94,8.16,overcast clouds
118,Sao Joao Do Paraiso,BR,-15.3136,-42.0144,84.29,34,12,12.28,few clouds
119,Mar Del Plata,AR,-38.0023,-57.5575,75.22,65,40,21.85,scattered clouds
120,Saskylakh,RU,71.9167,114.0833,-7.06,98,100,9.66,overcast clouds
121,Chokurdakh,RU,70.6333,147.9167,-21.78,100,81,2.57,broken clouds
122,Male,MV,4.1748,73.5089,84.15,74,20,1.14,few clouds
123,Kuandian,CN,40.7286,124.7847,36.61,77,0,2.82,clear sky
124,Torbay,CA,47.6666,-52.7314,41.76,72,57,27.96,broken clouds
125,Vestmanna,FO,62.1564,-7.1664,43.72,100,100,23.02,mist
126,Arlit,NE,18.7369,7.3853,90.14,6,2,5.37,clear sky
127,Mozelos,PT,41.8677,-8.3978,49.62,71,24,6.58,few clouds
128,Santa Barbara,US,34.7333,-120.0343,62.91,71,75,3.44,broken clouds
129,Butaritari,KI,3.0707,172.7902,81.46,72,98,14.5,overcast clouds
130,Battle Creek,US,42.3212,-85.1797,45.54,72,100,5.93,overcast clouds
131,Souillac,MU,-20.5167,57.5167,79.18,83,75,11.5,broken clouds
132,Jamestown,US,42.097,-79.2353,34.02,71,100,5.01,snow
133,Norman Wells,CA,65.282,-126.8329,-3.96,54,75,4.61,broken clouds
134,Nelson Bay,AU,-32.7167,152.15,63.0,90,98,5.79,overcast clouds
135,Sitka,US,57.0531,-135.33,39.09,87,100,17.27,moderate rain
136,Faya,SA,18.3851,42.4509,63.73,26,85,3.67,overcast clouds
137,Pisco,PE,-13.7,-76.2167,73.45,64,0,18.41,clear sky
138,Luderitz,NA,-26.6481,15.1594,60.57,87,0,5.82,clear sky
139,Tasiilaq,GL,65.6145,-37.6368,20.77,95,95,4.74,overcast clouds
140,Naze,JP,28.3667,129.4833,57.42,61,13,12.15,few clouds
141,Clyde River,CA,70.4692,-68.5914,12.67,94,50,4.05,scattered clouds
142,Yellowknife,CA,62.456,-114.3525,20.41,74,98,14.63,overcast clouds
143,Nhulunbuy,AU,-12.2333,136.7667,75.81,88,91,0.0,overcast clouds
144,Cidreira,BR,-30.1811,-50.2056,69.98,95,100,19.13,moderate rain
145,Bulawayo,ZW,-20.15,28.5833,68.09,63,75,3.65,broken clouds
146,Byron Bay,AU,-28.65,153.6167,64.71,92,95,7.36,light rain
147,Genhe,CN,50.7833,121.5167,26.4,76,71,9.91,broken clouds
148,Ponta Do Sol,PT,32.6667,-17.1,60.01,71,100,15.35,overcast clouds
149,Santa Catarina De Tepehuanes,MX,25.35,-105.7333,82.24,6,0,20.31,clear sky
150,Salekhard,RU,66.53,66.6019,13.64,83,100,11.61,overcast clouds
151,Vestmannaeyjar,IS,63.4427,-20.2734,42.98,81,100,18.9,overcast clouds
152,Kavaratti,IN,10.5669,72.642,82.31,72,71,7.0,broken clouds
153,Nanortalik,GL,60.1432,-45.2371,37.85,80,98,5.39,overcast clouds
154,Beringovskiy,RU,63.05,179.3167,-4.9,86,49,15.26,scattered clouds
155,Ancud,CL,-41.8697,-73.8203,50.23,67,81,8.99,broken clouds
156,Nome,US,64.5011,-165.4064,13.1,53,92,5.03,overcast clouds
157,College,US,64.8569,-147.8028,21.58,64,100,4.0,overcast clouds
158,Margate,GB,51.3813,1.3862,42.69,65,57,1.99,broken clouds
159,Tongliao,CN,43.6125,122.2653,49.57,32,43,21.52,scattered clouds
160,Dubbo,AU,-32.25,148.6167,51.93,87,100,3.44,overcast clouds
161,Kavieng,PG,-2.5744,150.7967,80.69,78,100,4.63,light rain
162,Bilma,NE,18.6853,12.9164,87.26,5,3,5.79,clear sky
163,Naryshkino,RU,52.9678,35.7268,29.75,96,100,9.4,overcast clouds
164,Oda,JP,35.1833,132.5,43.99,84,0,5.82,clear sky
165,Wuwei,CN,37.9281,102.6414,48.2,16,99,5.97,overcast clouds
166,Muisne,EC,0.6,-80.0333,80.85,78,98,9.86,overcast clouds
167,Semnan,IR,35.5729,53.3971,68.67,22,0,1.52,clear sky
168,Vardo,NO,70.3705,31.1107,26.58,93,75,10.36,light shower snow
169,Chuy,UY,-33.6971,-53.4616,71.62,68,92,10.69,moderate rain
170,Katherine,AU,-14.4667,132.2667,75.52,64,39,4.61,scattered clouds
171,Iqaluit,CA,63.7506,-68.5145,25.7,86,60,23.0,broken clouds
172,Rio Bueno,CL,-40.3167,-72.9667,57.11,56,100,3.78,overcast clouds
173,Mehamn,NO,71.0357,27.8492,28.31,65,96,11.3,overcast clouds
174,Palm Valley,US,30.1775,-81.3876,82.13,48,0,6.31,clear sky
175,Marsabit,KE,2.3284,37.9899,74.08,41,72,11.65,broken clouds
176,Porto-Vecchio,FR,41.591,9.2795,47.73,66,0,12.66,clear sky
177,Nata,PA,8.3333,-80.5167,92.17,46,76,13.09,broken clouds
178,Roald,NO,62.5833,6.1333,38.75,100,100,4.61,light shower snow
179,Olafsvik,IS,64.8945,-23.7142,36.0,93,100,17.45,overcast clouds
180,Florianopolis,BR,-27.6146,-48.5012,72.63,86,75,8.05,broken clouds
181,Emerald,AU,-23.5333,148.1667,69.35,79,86,10.89,overcast clouds
182,Batemans Bay,AU,-35.7167,150.1833,63.1,62,100,6.31,overcast clouds
183,Alofi,NU,-19.0595,-169.9187,80.31,71,89,12.15,overcast clouds
184,Jacksonville Beach,US,30.2947,-81.3931,81.14,47,0,5.99,clear sky
185,Broken Hill,AU,-31.95,141.4333,58.21,59,0,5.79,clear sky
186,Taoudenni,ML,22.6783,-3.9836,91.4,9,0,10.33,clear sky
187,Tautira,PF,-17.7333,-149.15,81.81,77,20,14.76,light rain
188,Kununurra,AU,-15.7667,128.7333,67.98,88,29,0.0,scattered clouds
189,Nishihara,JP,26.1842,127.7558,63.68,72,75,13.8,broken clouds
190,Port Moresby,PG,-9.4431,147.1797,75.25,84,100,3.0,overcast clouds
191,Ahipara,NZ,-35.1667,173.1667,64.74,86,3,2.24,clear sky
192,Maragogi,BR,-9.0122,-35.2225,79.86,80,37,9.84,scattered clouds
193,Otavi,NA,-19.65,17.3333,63.5,89,100,2.21,light rain
194,Saint-Pierre,RE,-21.3393,55.4781,74.88,94,100,9.22,overcast clouds
195,Bethel,US,41.3712,-73.414,42.51,89,100,3.67,overcast clouds
196,Tessalit,ML,20.1986,1.0114,91.65,8,0,6.53,clear sky
197,Elizabeth City,US,36.2946,-76.2511,73.42,31,0,7.0,clear sky
198,Tullahoma,US,35.362,-86.2094,62.22,32,0,4.61,clear sky
199,Cabedelo,BR,-6.9811,-34.8339,75.87,76,61,13.0,broken clouds
200,Kutum,SD,14.2,24.6667,79.27,11,100,9.73,overcast clouds
201,Assare,BR,-6.8744,-39.875,84.07,52,95,3.29,overcast clouds
202,Touros,BR,-5.1989,-35.4608,79.02,85,99,11.7,overcast clouds
203,Mount Gambier,AU,-37.8333,140.7667,46.31,100,38,5.75,mist
204,Eidfjord,NO,60.4675,7.0719,36.84,98,100,4.72,overcast clouds
205,Poum,NC,-20.2333,164.0167,81.99,82,100,17.81,moderate rain
206,Honningsvag,NO,70.9821,25.9704,28.04,53,100,17.22,overcast clouds
207,Tukrah,LY,32.5341,20.5791,64.36,56,0,15.55,clear sky
208,Sibolga,ID,1.7427,98.7792,74.8,87,94,2.3,overcast clouds
209,Soyo,AO,-6.1349,12.3689,78.93,90,49,9.24,scattered clouds
210,Hambantota,LK,6.1241,81.1185,78.1,83,14,1.81,few clouds
211,Kroya,ID,-7.6331,109.2461,75.87,88,100,3.85,overcast clouds
212,Dembi Dolo,ET,8.5333,34.8,63.37,72,86,2.55,overcast clouds
213,Almaty,KZ,43.25,76.95,44.51,76,40,2.24,mist
214,Brae,GB,60.3964,-1.353,46.72,96,100,21.43,overcast clouds
215,Chabahar,IR,25.2919,60.643,78.44,58,15,4.09,few clouds
216,Tuatapere,NZ,-46.1333,167.6833,46.99,92,87,3.44,overcast clouds
217,Manokwari,ID,-0.8667,134.0833,78.17,77,100,2.71,overcast clouds
218,Sur,OM,22.5667,59.5289,82.44,46,9,9.08,clear sky
219,Inirida,CO,3.8653,-67.9239,82.0,82,100,2.26,light rain
220,Maloy,NO,61.9353,5.1136,35.33,92,100,4.97,light snow
221,Elat,IL,29.5581,34.9482,80.44,12,0,18.41,clear sky
222,Along,IN,28.1667,94.7667,66.33,99,100,0.45,overcast clouds
223,Sovetskiy,RU,61.3614,63.5842,32.94,98,100,11.25,overcast clouds
224,Tuktoyaktuk,CA,69.4541,-133.0374,-11.16,95,99,4.05,overcast clouds
225,Tilichiki,RU,60.4667,166.1,9.03,85,96,6.73,overcast clouds
226,Dharchula,IN,29.85,80.5333,60.3,27,6,8.97,clear sky
227,Panhala,IN,16.8167,74.1167,72.34,74,100,4.47,overcast clouds
228,Nouadhibou,MR,20.931,-17.0347,64.98,86,0,11.74,clear sky
229,Batagay,RU,67.6333,134.6333,-14.06,99,98,1.25,overcast clouds
230,Mayumba,GA,-3.432,10.6554,77.88,93,47,5.17,scattered clouds
231,Chauk,MM,20.8833,94.8167,81.77,58,98,9.42,overcast clouds
232,Port Alfred,ZA,-33.5906,26.891,68.18,91,98,19.51,overcast clouds
233,Seoul,KR,37.5683,126.9778,40.44,47,0,2.51,clear sky
234,Dikson,RU,73.5069,80.5464,-2.94,100,45,9.19,scattered clouds
235,Gladstone,AU,-23.85,151.25,71.53,83,30,5.75,scattered clouds
236,Dorado,PR,18.4588,-66.2677,85.71,71,40,9.22,scattered clouds
237,Quatre Cocos,MU,-20.2078,57.7625,80.1,79,21,13.09,few clouds
238,Palmer,US,42.1584,-72.3287,50.38,66,100,3.0,overcast clouds
239,Mirandola,IT,44.8868,11.0662,48.36,67,96,6.85,overcast clouds
240,Leningradskiy,RU,69.3833,178.4167,-17.82,100,95,2.51,overcast clouds
241,Malakal,SS,9.5334,31.6605,89.89,36,91,4.5,overcast clouds
242,San Rafael,AR,-34.6177,-68.3301,65.97,17,12,7.83,few clouds
243,Acapulco,MX,16.8634,-99.8901,84.76,53,4,10.54,clear sky
244,Guerrero Negro,MX,27.9769,-114.0611,65.97,53,31,14.65,scattered clouds
245,Ilulissat,GL,69.2167,-51.1,30.22,74,75,9.22,broken clouds
246,Kaeo,NZ,-35.1,173.7833,66.33,92,18,1.03,few clouds
247,Half Moon Bay,US,37.4636,-122.4286,79.54,61,0,13.8,mist
248,Pingzhuang,CN,42.0372,119.2889,46.44,32,15,7.63,few clouds
249,Resistencia,AR,-27.4606,-58.9839,77.11,99,96,3.67,overcast clouds
250,Ahuimanu,US,21.4447,-157.8378,79.36,63,88,7.0,overcast clouds
251,Shenjiamen,CN,29.9576,122.298,50.4,63,34,6.26,scattered clouds
252,Lata,PT,40.1629,-8.3327,54.81,46,1,4.81,clear sky
253,Stykkisholmur,IS,65.0757,-22.7297,34.34,93,100,14.0,light snow
254,Paamiut,GL,61.994,-49.6678,35.8,80,88,7.9,overcast clouds
255,Chifeng,CN,42.2683,118.9636,50.95,27,89,16.71,overcast clouds
256,Bonthe,SL,7.5264,-12.505,78.82,78,11,9.57,few clouds
257,Kahului,US,20.8947,-156.47,78.96,83,20,30.0,few clouds
258,Vila Franca Do Campo,PT,37.7167,-25.4333,61.21,75,13,14.45,few clouds
259,Santa Rosa,PH,14.3122,121.1114,80.02,75,86,10.38,overcast clouds
260,Denpasar,ID,-8.65,115.2167,78.46,94,20,1.14,few clouds
261,Kasongo-Lunda,CD,-6.4667,16.8167,71.46,87,32,1.5,scattered clouds
262,Jingdezhen,CN,29.2947,117.2079,50.49,80,48,3.38,scattered clouds
263,Ust-Maya,RU,60.4167,134.5333,9.48,96,100,1.45,overcast clouds
264,Kangaba,ML,11.9333,-8.4167,94.23,24,100,3.62,overcast clouds
265,Saurimo,AO,-9.6608,20.3916,66.06,96,100,3.76,overcast clouds
266,Bengkulu,ID,-3.8004,102.2655,76.93,82,100,4.61,overcast clouds
267,Portland,US,45.5234,-122.6762,56.28,67,98,5.99,light rain
268,Mahbubabad,IN,17.6167,80.0167,79.95,61,16,8.16,few clouds
269,Mildura,AU,-34.2,142.15,53.08,87,0,3.44,clear sky
270,Odweyne,SO,9.4092,45.064,75.45,34,7,9.53,clear sky
271,Lichinga,MZ,-13.3128,35.2406,66.29,94,0,3.44,clear sky
272,Gornopravdinsk,RU,60.05,69.9,33.75,96,100,14.03,overcast clouds
273,Lagoa,PT,39.05,-27.9833,58.95,82,0,19.17,clear sky
274,Muroto,JP,33.2833,134.15,55.04,73,92,7.02,overcast clouds
275,Solginskiy,RU,61.05,41.3428,16.86,96,58,4.92,broken clouds
276,Faanui,PF,-16.4833,-151.75,81.82,75,71,10.51,broken clouds
277,Marquette,US,46.5333,-87.6335,40.44,80,99,1.59,overcast clouds
278,Terra Santa,BR,-2.1042,-56.4869,76.19,94,100,3.2,overcast clouds
279,Buraydah,SA,26.326,43.975,82.54,9,70,6.58,broken clouds
280,Yar-Sale,RU,66.8333,70.8333,6.42,92,100,9.91,overcast clouds
281,Belmonte,BR,-15.8631,-38.8828,80.98,72,3,8.05,clear sky
282,Sterling,US,39.0062,-77.4286,56.41,49,75,24.16,broken clouds
283,Westerly,US,41.3776,-71.8273,45.41,83,99,1.99,light rain
284,Punta Alta,AR,-38.8759,-62.0736,62.42,31,71,21.14,broken clouds
285,Mahebourg,MU,-20.4081,57.7,79.25,83,75,11.5,broken clouds
286,Pitanga,BR,-24.7572,-51.7614,75.2,70,28,4.61,scattered clouds
287,Hauterive,FR,46.0901,3.4459,38.16,94,87,2.95,overcast clouds
288,Hami,CN,42.8,93.45,53.71,25,0,8.46,clear sky
289,Bilibino,RU,68.0546,166.4372,-7.46,95,49,4.34,scattered clouds
290,Berlevag,NO,70.8578,29.0864,28.35,54,75,14.97,broken clouds
291,Kokopo,PG,-4.352,152.2633,77.16,85,77,1.66,broken clouds
292,Bandar-E Lengeh,IR,26.5579,54.8807,79.3,49,41,5.84,scattered clouds
293,Groningen,NL,53.25,6.75,40.01,82,40,5.75,scattered clouds
294,Ngunguru,NZ,-35.6167,174.5,64.29,83,11,1.52,few clouds
295,Adrar,MR,20.5022,-10.0711,82.63,11,0,11.05,clear sky
296,Urubicha,BO,-15.3833,-62.95,83.82,59,83,2.89,broken clouds
297,Mwinilunga,ZM,-11.7358,24.4293,62.74,94,70,1.28,light rain
298,Price,US,39.5994,-110.8107,62.11,8,0,5.75,clear sky
299,Le Vauclin,MQ,14.5452,-60.8388,84.25,58,20,18.41,few clouds
300,Karasjok,NO,69.4719,25.5112,18.12,95,99,7.92,overcast clouds
301,Boende,CD,-0.2167,20.8667,73.04,84,100,1.72,overcast clouds
302,Segezha,RU,63.7415,34.3222,16.75,97,100,5.06,overcast clouds
303,Dingle,PH,10.9995,122.6711,75.43,86,100,6.98,overcast clouds
304,Tromso,NO,69.6496,18.957,24.82,54,0,3.44,clear sky
305,Jijiga,ET,9.35,42.8,67.71,47,100,5.79,overcast clouds
306,Qaqortoq,GL,60.7167,-46.0333,41.94,74,100,2.24,overcast clouds
307,Sorong,ID,-0.8833,131.25,78.03,87,100,5.5,overcast clouds
308,Panguipulli,CL,-39.6333,-72.3333,55.62,52,73,5.17,broken clouds
309,Khovu-Aksy,RU,51.1333,93.6,31.75,77,99,5.68,overcast clouds
310,Beloyarsk,RU,53.4461,83.9048,36.91,99,100,3.98,overcast clouds
311,Pangnirtung,CA,66.1451,-65.7125,29.48,89,100,4.16,overcast clouds
312,Sukumo,JP,32.9333,132.7333,46.74,84,1,5.03,clear sky
313,Mana,GF,5.6592,-53.7767,80.01,83,40,11.43,scattered clouds
314,Araguacu,BR,-12.9306,-49.8264,85.37,64,12,1.57,few clouds
315,Waycross,US,31.2136,-82.354,78.85,31,0,10.36,clear sky
316,Cayenne,GF,4.9333,-52.3333,82.09,1,75,10.36,light rain
317,Zhezkazgan,KZ,47.8043,67.7144,51.46,45,100,9.04,overcast clouds
318,Karaton,ID,-6.3424,106.1045,73.26,93,100,3.58,overcast clouds
319,Bud,US,39.447,-86.1758,59.49,41,4,11.05,clear sky
320,Shanghai,CN,31.2222,121.4581,49.93,65,0,4.0,clear sky
321,Sao Filipe,CV,14.8961,-24.4956,71.13,76,4,9.53,clear sky
322,Izhevskoye,RU,54.5567,40.8703,29.82,98,100,6.11,light snow
323,Bucerias,MX,20.75,-105.3333,76.98,65,0,13.8,clear sky
324,Hualmay,PE,-11.0964,-77.6139,73.51,75,17,10.54,few clouds
325,Mahanoro,MG,-19.9,48.8,73.53,92,38,6.91,scattered clouds
326,Wanning,CN,18.8003,110.3967,66.58,77,100,11.74,overcast clouds
327,Conceicao Da Barra,BR,-18.5933,-39.7322,80.24,72,0,6.53,clear sky
328,Northam,GB,51.0333,-4.2167,44.62,71,53,9.13,broken clouds
329,Asyut,EG,27.181,31.1837,80.42,11,98,5.55,overcast clouds
330,Uige,AO,-7.6087,15.0613,69.22,82,95,2.75,overcast clouds
331,Hofn,IS,64.2539,-15.2082,38.17,84,100,16.91,overcast clouds
332,Bonavista,CA,48.6499,-53.1147,36.57,85,100,13.51,overcast clouds
333,Chazuta,PE,-6.5742,-76.1367,88.65,55,93,2.21,overcast clouds
334,Hornepayne,CA,49.2138,-84.7705,32.76,91,100,6.02,overcast clouds
335,Karaikkudi,IN,10.0667,78.7833,82.2,72,39,5.66,scattered clouds
336,Lorengau,PG,-2.0226,147.2712,80.06,77,100,0.92,overcast clouds
337,Acarau,BR,-2.8856,-40.12,79.95,84,23,12.37,moderate rain
338,Phalaborwa,ZA,-23.943,31.1411,77.5,46,4,5.68,clear sky
339,Mezen,RU,65.8522,44.24,11.62,97,94,3.58,overcast clouds
340,Hagere Hiywet,ET,8.9833,37.85,66.56,45,98,10.96,overcast clouds
341,Cabo San Lucas,MX,22.8909,-109.9124,78.62,58,0,11.5,clear sky
342,Longyearbyen,SJ,78.2186,15.6401,8.44,52,20,21.85,few clouds
343,Wukari,NG,7.85,9.7833,89.65,32,100,4.85,overcast clouds
344,Bahir Dar,ET,11.5936,37.3908,75.47,33,76,5.86,broken clouds
345,Rexburg,US,43.826,-111.7897,55.42,20,0,3.44,clear sky
346,Turayf,SA,31.6725,38.6637,72.09,14,100,8.25,overcast clouds
347,Marakkanam,IN,12.2,79.95,81.25,77,52,8.19,broken clouds
348,Kibala,TD,9.1104,18.3463,92.43,24,10,7.4,clear sky
349,Kingsport,US,36.5484,-82.5618,62.2,31,0,7.0,clear sky
350,Gamba,GA,-2.65,10.0,77.54,94,100,3.89,overcast clouds
351,Preobrazheniye,RU,42.9019,133.9064,36.84,86,5,7.07,clear sky
352,Neosho,US,36.869,-94.368,74.32,48,97,16.87,overcast clouds
353,Kandi,BJ,11.1342,2.9386,93.97,17,97,2.73,overcast clouds
354,Omboue,GA,-1.5746,9.2618,78.1,87,77,4.85,broken clouds
355,Pemangkat,ID,1.1667,108.9667,77.52,86,87,2.8,overcast clouds
356,Turukhansk,RU,65.8167,87.9833,-5.08,100,23,3.96,few clouds
357,Chamba,IN,32.5667,76.1333,65.12,29,0,10.31,clear sky
358,Coihaique,CL,-45.5752,-72.0662,42.57,96,100,8.25,light rain
359,Buzmeyin,TM,38.0507,58.2056,76.86,17,0,5.3,clear sky
360,Beyneu,KZ,45.3167,55.2,64.9,38,94,11.92,overcast clouds
361,Mantua,IT,45.1667,10.7833,47.44,80,86,5.99,overcast clouds
362,Victor Harbor,AU,-35.5667,138.6167,56.19,88,35,2.71,scattered clouds
363,Ozernovskiy,RU,51.5,156.5167,30.94,90,65,5.19,broken clouds
364,Tynda,RU,55.1667,124.7167,6.15,93,7,4.05,clear sky
365,Qingyuan,CN,23.7,113.0333,58.98,65,0,4.56,clear sky
366,Kidal,ML,18.4411,1.4078,91.9,7,6,7.18,clear sky
367,Sorland,NO,67.667,12.6934,31.86,69,28,10.54,light snow
368,Derzhavinsk,KZ,51.1,66.3167,39.18,77,98,12.35,overcast clouds
369,Scarborough,GB,54.2797,-0.4044,44.17,76,100,7.0,overcast clouds
370,Clarence Town,AU,-32.5833,151.7833,63.55,76,87,3.22,overcast clouds
371,Corner Brook,CA,48.9667,-57.9484,33.76,96,100,12.82,snow
372,Noumea,NC,-22.2763,166.4572,81.0,99,84,10.27,broken clouds
373,Doha,QA,25.2867,51.5333,76.98,19,0,6.91,clear sky
374,Leh,IN,34.1667,77.5833,24.8,63,49,5.64,scattered clouds
375,Poronaysk,RU,49.2167,143.1167,39.99,62,17,12.26,few clouds
376,Chany,RU,55.3121,76.7647,33.35,100,100,6.8,overcast clouds
377,Marks,RU,51.7111,46.7486,46.78,90,100,3.6,overcast clouds
378,Salalah,OM,17.0151,54.0924,78.89,89,0,2.3,clear sky
379,Thinadhoo,MV,0.5333,72.9333,82.89,65,5,2.57,clear sky
380,Santiago Del Estero,AR,-27.7951,-64.2615,83.26,33,0,2.37,clear sky
381,Inhambane,MZ,-23.865,35.3833,78.04,70,8,11.99,clear sky
382,Blagoyevo,RU,63.3667,47.9167,23.9,94,100,7.92,overcast clouds
383,Victoria,HK,22.2855,114.1577,65.25,61,0,11.99,clear sky
384,Balagansk,RU,54.0103,103.0544,20.48,97,100,3.87,overcast clouds
385,Lompoc,US,34.6391,-120.4579,69.69,76,40,13.8,scattered clouds
386,Hay River,CA,60.8156,-115.7999,31.6,95,99,9.24,overcast clouds
387,Buta,CD,2.7858,24.73,71.46,92,62,3.85,light rain
388,Tiznit,MA,29.5833,-9.5,58.93,59,50,4.0,scattered clouds
389,Ampanihy,MG,-24.7,44.75,70.75,85,0,5.79,clear sky
390,Kapit,MY,2.0167,112.9333,72.09,100,100,1.16,overcast clouds
391,Minudasht,IR,37.2289,55.3747,73.2,25,0,5.14,clear sky
392,Khandyga,RU,62.6667,135.6,1.13,97,98,3.6,overcast clouds
393,Kovdor,RU,67.5662,30.4758,20.79,95,100,7.85,snow
394,Vila Velha,BR,-20.3297,-40.2925,81.95,80,19,4.81,few clouds
395,Isoka,ZM,-10.1606,32.6335,63.82,94,100,0.96,light rain
396,Bambanglipuro,ID,-7.95,110.2833,76.06,87,100,4.27,overcast clouds
397,Miura,JP,35.14,139.6192,48.09,93,100,25.66,moderate rain
398,Yuci,CN,37.6803,112.7319,40.75,48,0,2.24,clear sky
399,Husavik,IS,66.0449,-17.3389,29.77,95,100,11.99,snow
400,Beni Mazar,EG,28.4962,30.8029,73.74,19,7,14.85,clear sky
401,Piacabucu,BR,-10.4056,-36.4344,80.82,73,14,9.28,few clouds
402,Ratnagiri,IN,16.9833,73.3,78.93,77,18,6.49,few clouds
403,Aykhal,RU,66.0,111.5,3.76,97,100,8.43,overcast clouds
404,Uruguaiana,BR,-29.7547,-57.0883,66.13,100,100,2.3,thunderstorm with rain
405,Podsineye,RU,53.6658,91.5364,35.96,93,40,8.95,scattered clouds
406,Asau,RO,46.4333,26.4,32.92,93,100,1.21,light snow
407,Sisimiut,GL,66.9395,-53.6735,34.07,89,14,4.21,few clouds
408,Rio Pardo De Minas,BR,-15.6097,-42.5397,83.14,36,1,7.23,clear sky
409,Gbadolite,CD,4.2833,21.0167,77.16,68,84,3.31,broken clouds
410,Sao Joao De Pirabas,BR,-0.7747,-47.1772,80.71,81,93,6.93,moderate rain
411,Mindelo,CV,16.8901,-24.9804,71.15,64,20,6.91,few clouds
412,Tecolutla,MX,20.4833,-97.0167,89.46,68,95,11.41,overcast clouds
413,Mahajanga,MG,-15.7167,46.3167,80.13,76,0,3.98,clear sky
414,Nirmal,IN,19.1,78.35,86.95,25,57,5.12,broken clouds
415,Caravelas,BR,-17.7125,-39.2481,80.02,68,0,6.64,clear sky
416,Adelaide,AU,-34.9333,138.6,56.3,83,0,5.75,clear sky
417,Hamilton,US,39.1834,-84.5333,58.23,47,40,11.5,scattered clouds
418,Nueva Helvecia,UY,-34.3,-57.2333,67.59,81,100,10.47,overcast clouds
419,Saldanha,ZA,-33.0117,17.9442,61.93,80,0,3.85,clear sky
420,Kruisfontein,ZA,-34.0033,24.7314,60.89,84,89,1.66,overcast clouds
421,Hobyo,SO,5.3505,48.5268,81.61,74,25,9.95,scattered clouds
422,Ucluelet,CA,48.9329,-125.5528,47.08,89,14,1.01,few clouds
423,York,US,40.1254,-77.0,49.28,54,100,12.66,overcast clouds
424,Vihti,FI,60.417,24.3197,33.85,75,100,8.01,overcast clouds
425,Kaitangata,NZ,-46.2817,169.8464,47.16,94,92,5.17,overcast clouds
426,Lyantonde,UG,-0.4031,31.1572,67.08,69,17,0.83,few clouds
427,Pietarsaari,FI,63.65,22.6833,25.0,76,100,5.88,overcast clouds
428,Port Lincoln,AU,-34.7333,135.8667,58.87,83,0,3.38,clear sky
429,Balaipungut,ID,1.05,101.2833,73.69,97,99,3.09,moderate rain
430,Marietta,US,33.9526,-84.5499,69.48,23,20,12.66,few clouds
431,Port Blair,IN,11.6667,92.75,80.42,79,24,8.86,few clouds
432,Te Anau,NZ,-45.4167,167.7167,46.22,75,69,0.94,broken clouds
433,Fortuna,US,40.5982,-124.1573,58.93,64,20,13.8,few clouds
434,Klaksvik,FO,62.2266,-6.589,45.52,98,100,17.2,overcast clouds
435,Anadyr,RU,64.75,177.4833,-15.34,95,52,8.03,broken clouds
436,Shingu,JP,33.7333,135.9833,49.66,88,97,5.99,overcast clouds
437,Pueblo Nuevo,MX,23.3833,-105.3833,77.23,15,0,9.31,clear sky
438,At-Bashi,KG,41.1702,75.8106,35.67,62,2,4.14,clear sky
439,Winnemucca,US,40.973,-117.7357,62.65,16,0,0.0,clear sky
440,Lashio,MM,22.9333,97.75,65.89,72,31,1.07,scattered clouds
441,Sunel,IN,24.3667,75.9667,84.58,14,0,7.2,clear sky
442,Savonlinna,FI,61.8699,28.88,23.05,68,0,1.14,clear sky
443,Nenjiang,CN,49.1833,125.2167,43.2,54,99,8.19,overcast clouds
444,Ust-Uda,RU,54.1742,103.0304,19.2,97,100,3.65,overcast clouds
445,Calvinia,ZA,-31.4707,19.776,59.16,63,0,7.56,clear sky
446,Mbala,ZM,-8.8402,31.3659,60.69,89,95,2.62,overcast clouds
447,Bathsheba,BB,13.2167,-59.5167,83.01,61,20,19.57,few clouds
448,Coaldale,CA,49.7167,-112.6185,45.16,25,100,15.66,overcast clouds
449,Makinsk,KZ,52.6292,70.4169,35.46,92,100,11.52,overcast clouds
450,Pokhara,NP,28.2333,83.9833,66.92,70,57,5.01,broken clouds
451,Fort Nelson,CA,58.8053,-122.7002,32.43,99,100,3.06,overcast clouds
452,Shache,CN,38.4167,77.2406,59.45,20,25,5.1,scattered clouds
453,Juba,SS,4.8517,31.5825,81.45,43,100,2.82,overcast clouds
454,Shirokiy,RU,49.758,129.523,31.66,80,99,6.89,overcast clouds
455,Ossora,RU,59.2353,163.0719,11.89,84,39,5.95,scattered clouds
456,Naryan-Mar,RU,67.6713,53.087,9.73,94,100,10.25,overcast clouds
457,Port-Cartier,CA,50.0334,-66.8654,34.59,92,62,8.66,broken clouds
458,Mamallapuram,IN,12.6264,80.1722,84.25,80,45,10.18,scattered clouds
459,Moyobamba,PE,-6.05,-76.9667,72.68,94,99,1.61,overcast clouds
460,Koryazhma,RU,61.3143,47.1691,23.94,94,100,8.57,overcast clouds
461,Verkhnetulomskiy,RU,68.6073,31.7962,10.53,97,100,2.51,overcast clouds
462,Jiuquan,CN,39.7432,98.5174,47.57,21,6,13.35,clear sky
463,Bundaberg,AU,-24.85,152.35,66.49,98,13,6.91,few clouds
464,Vila Do Maio,CV,15.1333,-23.2167,72.39,75,52,15.86,broken clouds
465,Traverse City,US,44.7631,-85.6206,46.72,74,100,6.91,overcast clouds
466,Carroll,US,39.5501,-77.0164,53.49,53,100,18.41,overcast clouds
467,Totness,SR,5.8833,-56.3167,79.66,82,40,10.54,scattered clouds
468,Ypsonas,CY,34.6884,32.9574,68.97,28,0,10.36,clear sky
469,Pirovskoye,RU,57.6267,92.2658,5.54,95,51,0.81,broken clouds
470,Champerico,GT,14.3,-91.9167,97.34,60,2,13.91,clear sky
471,San Felipe,VE,10.3399,-68.7425,87.58,53,91,7.9,overcast clouds
472,Nanakuli,US,21.3906,-158.1547,80.55,57,75,12.66,broken clouds
473,Shimoda,JP,34.6667,138.95,49.1,91,100,18.07,moderate rain
474,Mustasaari,FI,63.1142,21.6822,27.9,86,0,4.61,clear sky
475,Lujiang,CN,31.2581,117.2817,47.48,76,97,4.7,overcast clouds
476,Yangjiang,CN,21.85,111.9667,59.67,65,0,4.7,clear sky
477,Aguimes,ES,27.9054,-15.4461,63.23,88,75,11.5,broken clouds
478,Petropavlovsk-Kamchatskiy,RU,53.0452,158.6483,23.59,58,0,13.42,clear sky
479,Ilebo,CD,-4.3167,20.5833,74.17,91,99,1.79,light rain
480,Marystown,CA,47.1666,-55.1483,36.86,100,48,17.0,scattered clouds
481,Kon Tum,VN,14.35,108.0,61.34,92,100,3.13,overcast clouds
482,Oxbow,CA,49.2333,-102.1676,40.64,69,100,2.35,overcast clouds
483,Verkhnevilyuysk,RU,63.4453,120.3167,-9.06,100,89,3.51,overcast clouds
484,Los Llanos De Aridane,ES,28.6585,-17.9182,60.55,97,40,13.0,scattered clouds
485,Raton,US,36.9034,-104.4391,63.05,27,100,10.36,overcast clouds
486,Siavonga,ZM,-16.5382,28.7088,76.06,73,0,5.53,clear sky
487,Pendleton,US,45.6721,-118.7886,59.23,49,75,12.66,broken clouds
488,Shush,IR,32.1942,48.2436,80.35,15,100,5.41,overcast clouds
489,Trat,TH,12.5,102.5,68.11,78,100,8.37,overcast clouds
490,Pushkino,RU,56.0172,37.8667,28.69,93,100,5.44,overcast clouds
491,Barcelos,PT,41.5388,-8.6151,51.94,62,74,7.65,broken clouds
492,Jurm,AF,36.8648,70.8342,52.79,41,0,5.39,clear sky
493,Malyye Derbety,RU,47.9547,44.6808,52.83,85,88,8.88,overcast clouds
494,Maraa,BR,-1.8333,-65.3667,80.24,91,50,0.81,scattered clouds
495,Narsaq,GL,60.9167,-46.05,41.22,76,100,4.41,overcast clouds
496,Ahlat,TR,38.7518,42.4814,35.74,81,22,2.86,few clouds
497,Sambava,MG,-14.2667,50.1667,77.65,87,100,8.7,light rain
498,Arman,RU,59.7,150.1667,4.05,91,20,6.51,few clouds
499,Gravdal,NO,68.1214,13.5031,30.09,74,40,20.71,scattered clouds
500,Kostomuksha,RU,64.571,30.5767,18.59,97,100,4.36,overcast clouds
501,Lumeje,AO,-11.55,20.7833,66.22,93,40,4.45,moderate rain
502,Kosino,RU,58.4127,51.2782,34.45,98,100,13.09,light snow
503,Harper,LR,4.375,-7.7169,80.31,82,100,9.55,overcast clouds
504,Egvekinot,RU,66.3167,-179.1667,-7.58,83,62,16.89,broken clouds
505,Suruc,TR,36.9761,38.425,55.98,61,100,7.9,overcast clouds
506,Kalianget,ID,-7.05,113.9333,79.05,80,6,1.12,clear sky
507,Bo Phloi,TH,14.3236,99.5161,74.32,58,100,7.65,overcast clouds
508,Axim,GH,4.8699,-2.2405,81.97,86,100,10.85,overcast clouds
509,Lasa,IT,46.6166,10.7002,36.36,96,100,1.48,overcast clouds
510,Sinnamary,GF,5.3833,-52.95,79.23,87,50,11.65,moderate rain
511,Novopavlovsk,RU,43.9622,43.6342,56.44,81,100,3.11,overcast clouds
512,Semey,KZ,50.4111,80.2275,37.65,77,62,8.61,broken clouds
513,Klyuchi,RU,52.2667,79.1667,38.3,78,98,7.23,overcast clouds
514,Uryupinsk,RU,50.8047,42.0138,40.6,85,100,6.71,light rain
515,Haapiti,PF,-17.5667,-149.8667,83.93,77,8,11.34,light rain
516,Colares,PT,38.7992,-9.4469,56.28,51,20,20.0,few clouds
517,Ormara,PK,25.2088,64.6357,77.5,68,2,4.45,clear sky
518,Kemin,KG,42.7846,75.6892,50.72,50,0,9.91,clear sky
519,Shiyan,CN,32.6475,110.7781,56.98,81,100,0.54,moderate rain
520,Djambala,CG,-2.5447,14.7533,71.01,84,97,1.07,light rain
521,Gat,IL,31.61,34.7642,72.39,50,100,6.15,overcast clouds
522,Kieta,PG,-6.2167,155.6333,79.11,83,99,1.05,overcast clouds
523,Pahrump,US,36.2083,-115.9839,78.44,16,100,1.99,overcast clouds
524,Muros,ES,42.7762,-9.0603,48.09,54,0,19.69,clear sky
525,Shangzhi,CN,45.2167,127.9667,48.85,41,0,20.07,clear sky
526,Sao Joao Do Piaui,BR,-8.3581,-42.2467,91.85,29,70,6.44,broken clouds
527,Borovoy,RU,55.4333,86.0833,31.28,100,100,4.47,overcast clouds
528,Kearney,US,40.6995,-99.0815,61.57,25,0,19.57,clear sky
529,Vernon,CA,50.2581,-119.2691,57.13,37,68,1.01,broken clouds
530,Meulaboh,ID,4.1363,96.1285,74.25,84,100,3.09,overcast clouds
531,Necochea,AR,-38.5473,-58.7368,55.35,66,100,24.38,overcast clouds
532,Xapuri,BR,-10.6517,-68.5044,88.77,48,32,1.5,scattered clouds
533,Nova Olimpia,BR,-14.7972,-57.2881,85.23,72,9,2.35,clear sky
534,Dahuk,IQ,36.8695,42.994,63.21,39,25,3.65,scattered clouds
535,Biak,ID,-0.9131,122.8766,76.44,86,100,2.33,overcast clouds
536,Deer Lake,CA,49.1667,-57.4316,35.19,93,74,13.27,broken clouds
537,Sao Felix Do Xingu,BR,-6.6447,-51.995,80.04,91,24,3.58,heavy intensity rain
538,Marshall,US,34.3834,-86.3333,67.32,27,0,11.99,clear sky
539,Oranjestad,AW,12.524,-70.027,84.15,70,75,24.16,broken clouds
540,Kasangulu,CD,-4.5911,15.1708,73.53,87,83,2.19,broken clouds
541,Broome,US,42.2506,-75.833,40.66,79,100,17.27,overcast clouds
542,Dalmatovo,RU,56.26,62.9362,36.64,97,99,10.58,overcast clouds
543,Saint-Georges,GD,12.0564,-61.7485,83.88,61,20,32.21,few clouds
544,Sabha,LY,27.0377,14.4283,81.61,8,0,8.97,clear sky
545,Sheopur,IN,25.6667,76.7,84.09,9,0,2.62,clear sky
546,Caraguatatuba,BR,-23.6338,-45.4899,76.68,87,59,4.63,broken clouds
547,Churapcha,RU,62.0025,132.4325,-1.46,100,100,1.83,overcast clouds
548,Cayambe,EC,0.05,-78.1333,63.66,76,98,2.21,light rain
549,Yulara,AU,-25.2406,130.9889,59.09,32,0,8.25,clear sky
550,Dryden,CA,49.7833,-92.7503,33.35,82,100,1.88,overcast clouds
551,Khash,IR,28.2211,61.2158,67.69,12,0,3.74,clear sky
552,Terrace,CA,54.5163,-128.6035,39.99,84,89,4.65,light rain
553,Amuntai,ID,-2.4177,115.2494,73.17,99,90,0.36,overcast clouds
554,Verkhnyaya Inta,RU,65.9811,60.3094,22.14,75,100,18.84,overcast clouds
555,Danjiangkou,CN,32.5428,111.5086,54.09,82,100,3.27,light rain
556,Chulman,RU,56.8479,124.9104,9.32,94,99,9.01,overcast clouds
557,Nuuk,GL,64.1835,-51.7216,38.01,81,0,12.66,clear sky
558,Kloulklubed,PW,7.0419,134.2556,81.18,79,100,4.61,light rain
559,Dunedin,NZ,-45.8742,170.5036,56.8,75,93,5.01,overcast clouds
560,Coquimbo,CL,-29.9533,-71.3436,62.33,72,0,13.8,clear sky
561,Calama,CL,-22.4667,-68.9333,72.09,16,0,21.85,clear sky
562,Oum Hadjer,TD,13.2954,19.6966,91.18,8,81,11.1,broken clouds
563,Pontes E Lacerda,BR,-15.2261,-59.3353,82.26,85,26,1.63,scattered clouds
564,Kupang,ID,-10.1667,123.5833,76.3,85,37,0.83,scattered clouds
565,Baruun-Urt,MN,46.6806,113.2792,37.83,62,97,13.98,overcast clouds
566,Torres,BR,-29.3353,-49.7269,71.83,92,100,13.85,moderate rain
567,Laguna,US,38.421,-121.4238,80.89,21,0,9.22,clear sky
568,Vostok,RU,46.4856,135.8833,27.46,82,0,7.02,clear sky
569,Vanimo,PG,-2.6741,141.3028,77.31,87,100,2.48,moderate rain
570,Kewanee,US,41.2456,-89.9248,55.8,45,98,1.03,overcast clouds
571,Umm Lajj,SA,25.0213,37.2685,82.44,35,99,6.89,overcast clouds
572,Lewistown,US,40.5992,-77.5714,44.87,90,100,11.5,overcast clouds
573,Carbonia,IT,39.1672,8.5222,49.01,61,100,3.44,overcast clouds
574,Sinop,TR,41.7711,34.8709,45.7,68,87,9.86,overcast clouds
575,Iracoubo,GF,5.4802,-53.2011,79.18,87,39,11.52,moderate rain
576,Le Port,RE,-20.9373,55.2919,75.2,82,99,8.7,light rain
577,Palana,RU,59.1167,159.9667,19.9,96,100,7.9,light snow
578,Quimper,FR,48.0,-4.1,41.58,60,20,5.75,few clouds
579,Normandin,CA,48.8333,-72.5321,35.92,77,100,3.89,overcast clouds
580,Sao Geraldo Do Araguaia,BR,-6.4006,-48.555,81.16,91,73,3.38,moderate rain
581,Kashi,CN,39.4547,75.9797,58.15,34,5,4.94,clear sky
582,El Alto,PE,-4.2714,-81.2147,82.06,69,57,16.42,broken clouds
583,Araouane,ML,18.9048,-3.5265,91.17,11,0,7.58,clear sky
584,Clinton,US,42.587,-82.9199,44.94,69,75,11.5,broken clouds
585,Pochutla,MX,15.7432,-96.4661,91.22,34,5,9.13,clear sky
586,Migori,KE,-1.0634,34.4731,69.48,63,100,6.02,overcast clouds
587,Jiwani,PK,25.05,61.7417,78.22,72,6,1.99,clear sky
588,Tambun,ID,-6.2641,107.0712,83.46,74,100,2.62,overcast clouds
589,Mahibadhoo,MV,3.7833,72.9667,82.6,69,15,1.95,few clouds
590,Abidjan,CI,5.3094,-4.0197,84.16,84,20,10.36,few clouds
591,Grenaa,DK,56.4158,10.8783,41.22,89,100,22.15,overcast clouds
592,Narsimhapur,IN,22.95,79.2,86.09,13,0,2.35,clear sky
593,Lodja,CD,-3.4833,23.4333,70.3,92,71,0.76,broken clouds
594,Eureka,US,40.8021,-124.1637,59.2,69,100,5.99,overcast clouds
595,Bani Walid,LY,31.7566,13.9942,60.19,71,0,16.69,clear sky
596,Areosa,PT,41.7178,-8.8571,49.17,56,52,14.61,broken clouds
597,Inuvik,CA,68.3499,-133.7218,-7.71,90,100,6.73,overcast clouds
598,Corrente,BR,-3.7367,-43.3394,80.65,77,99,2.57,overcast clouds
599,Kukes,AL,42.0769,20.4219,39.07,92,35,3.33,scattered clouds
600,Aksarka,RU,66.5606,67.7975,13.64,84,100,11.48,overcast clouds
601,Mega,ET,4.05,38.3,66.79,43,83,11.61,broken clouds
602,Whitianga,NZ,-36.8333,175.7,63.54,80,8,2.17,clear sky
603,Shuyskoye,RU,59.3736,41.0305,22.01,94,40,5.46,scattered clouds
604,Kondoros,HU,46.7667,20.8,37.98,90,100,2.26,overcast clouds
605,Evanton,GB,57.6638,-4.34,47.59,93,100,11.32,moderate rain
606,Alice Springs,AU,-23.7,133.8833,51.35,58,0,1.14,clear sky
607,Taltal,CL,-25.4,-70.4833,67.23,66,22,5.3,few clouds
608,Okhotsk,RU,59.3833,143.3,17.02,92,100,8.77,overcast clouds
609,Kiama,AU,-34.6833,150.8667,61.57,67,0,3.0,clear sky
610,Hervey Bay,AU,-25.2986,152.8535,68.02,92,2,8.99,clear sky
611,Huarmey,PE,-10.0681,-78.1522,74.97,73,18,11.99,few clouds
612,Goderich,CA,43.7501,-81.7165,38.91,80,61,14.25,broken clouds
613,Fuchu,JP,35.6667,139.4833,47.55,94,100,8.05,light rain
614,Pitimbu,BR,-7.4706,-34.8086,75.79,77,29,12.53,scattered clouds
615,Vilhena,BR,-12.7406,-60.1458,79.88,75,99,1.12,overcast clouds
616,Novo Aripuana,BR,-5.1206,-60.3797,80.35,93,100,1.01,heavy intensity rain
617,Homer,US,59.6425,-151.5483,38.77,76,0,4.61,clear sky
618,Dyersburg,US,36.0345,-89.3856,64.87,32,0,4.61,clear sky
619,Astana,KZ,51.1801,71.446,35.55,93,0,4.47,clear sky
620,Kutoarjo,ID,-7.7169,109.9128,70.5,89,100,2.95,overcast clouds
621,Qasigiannguit,GL,68.8193,-51.1922,30.45,91,21,6.4,few clouds
622,Lavrentiya,RU,65.5833,-171.0,-8.03,89,22,11.16,few clouds
623,Arroyo,ES,41.6096,-4.7969,37.44,62,20,17.27,few clouds
624,Farah,AF,32.5,62.5,67.59,9,0,3.02,clear sky
625,Kaabong,UG,3.4836,34.1492,73.62,43,76,14.34,broken clouds
626,Peniche,PT,39.3558,-9.3811,55.29,68,76,24.76,broken clouds
627,Khorramshahr,IR,30.4397,48.1664,78.75,11,82,8.59,broken clouds
628,Ambon,ID,-3.6954,128.1814,80.74,78,40,3.44,scattered clouds
629,Lufilufi,WS,-13.8745,-171.5986,85.78,75,69,14.32,broken clouds
630,Alma,CA,48.5501,-71.6491,34.32,73,100,4.54,overcast clouds
631,Constitucion,CL,-35.3333,-72.4167,62.78,44,0,22.1,clear sky
632,Ca Mau,VN,9.1769,105.15,77.02,83,100,9.17,overcast clouds
633,Sao Joao Da Barra,BR,-21.6403,-41.0511,78.89,82,14,11.12,few clouds
634,Sept-Iles,CA,50.2001,-66.3821,35.08,87,37,8.86,scattered clouds
635,Kochki,RU,54.3358,80.4806,33.53,100,100,5.08,overcast clouds
636,North Bend,US,43.4065,-124.2243,59.92,64,75,11.5,broken clouds
637,Ciurila,RO,46.65,23.55,30.07,75,40,8.05,scattered clouds
638,Mayo,US,38.8876,-76.5119,58.98,45,100,18.99,overcast clouds
639,Ixtapa,MX,20.7,-105.2,76.23,65,0,13.8,clear sky
640,Sabzevar,IR,36.2126,57.6819,69.76,19,10,4.23,clear sky
641,Henties Bay,NA,-22.116,14.2845,61.66,83,0,4.92,clear sky
642,Muli,MV,2.9167,73.5667,82.74,63,4,1.72,clear sky
643,Campos Belos,BR,-13.0367,-46.7717,84.2,50,16,4.0,few clouds
644,Prabumulih,ID,-3.45,104.25,73.6,98,100,1.43,light rain
645,Vuktyl,RU,63.8567,57.3094,23.72,90,100,14.92,snow
646,Maues,BR,-3.3836,-57.7186,74.48,98,100,2.28,moderate rain
647,Saint-Francois,FR,46.4154,3.9054,36.84,70,0,4.61,clear sky
648,Praia Da Vitoria,PT,38.7333,-27.0667,61.75,82,11,15.68,few clouds
649,Magdagachi,RU,53.45,125.8,24.19,64,52,9.86,broken clouds
650,Mao,ES,39.8885,4.2658,46.96,61,0,14.97,clear sky
651,Bereda,ES,43.2686,-7.5406,40.41,72,6,9.24,clear sky
652,Bogale,MM,16.2833,95.4,78.71,69,100,0.27,overcast clouds
653,Karratha,AU,-20.7377,116.8463,80.78,71,0,10.69,clear sky
654,Imeni Poliny Osipenko,RU,52.4201,136.4853,34.47,85,100,12.33,overcast clouds
655,San Ramon,US,37.7799,-121.978,80.82,39,0,12.66,clear sky
656,Walvis Bay,NA,-22.9575,14.5053,59.09,79,0,10.54,clear sky
657,Albanel,CA,48.8832,-72.4487,36.01,74,100,4.41,overcast clouds
658,Yima,CN,34.7381,111.8839,50.68,71,100,3.87,overcast clouds
659,Makakilo City,US,21.3469,-158.0858,79.12,53,75,18.41,broken clouds
660,Hirara,JP,24.8,125.2833,68.92,69,94,25.12,overcast clouds
661,Bowen,AU,-20.0167,148.2333,77.97,80,40,7.23,scattered clouds
662,Coari,BR,-4.085,-63.1414,77.67,81,91,2.64,overcast clouds
663,Flinders,AU,-34.5833,150.8552,61.38,83,0,1.99,clear sky
664,Murray Bridge,AU,-35.1167,139.2667,54.12,93,5,2.95,clear sky
665,Kissidougou,GN,9.1848,-10.0999,72.66,88,99,5.5,light rain
666,Coahuayana,MX,18.7333,-103.6833,86.43,46,85,8.3,overcast clouds
667,Ponta Delgada,PT,37.7333,-25.6667,61.52,67,20,13.8,few clouds
668,Ulladulla,AU,-35.35,150.4667,62.85,60,100,9.48,overcast clouds
669,Padang,ID,-0.9492,100.3543,75.87,86,31,4.38,scattered clouds
670,Bloemfontein,ZA,-29.1211,26.214,61.39,82,33,15.82,light rain
671,Golden,US,39.7555,-105.2211,53.47,43,75,9.22,broken clouds
672,Natitingou,BJ,10.3042,1.3796,81.68,54,99,8.01,overcast clouds
673,Chimbote,PE,-9.0853,-78.5783,73.87,73,16,10.4,few clouds
674,Islamkot,PK,24.6997,70.177,77.67,49,0,12.93,clear sky
675,Riyadh,SA,24.6877,46.7219,77.14,12,89,7.92,overcast clouds
676,Port-Gentil,GA,-0.7193,8.7815,81.12,80,30,7.4,scattered clouds
677,Spring Hill,US,28.4769,-82.5255,80.64,45,0,6.91,clear sky
678,Zinder,NE,13.8072,8.9881,82.98,5,25,6.22,scattered clouds
679,Roma,US,43.2128,-75.4557,39.72,92,100,4.61,light rain
680,Pouembout,NC,-21.1333,164.9,78.75,90,100,4.81,overcast clouds
681,Bahia Blanca,AR,-38.7196,-62.2724,63.37,22,88,19.19,overcast clouds
682,Shahr-E Babak,IR,30.1165,55.1186,62.55,12,0,1.54,clear sky
683,Camana,PE,-16.6228,-72.7111,72.27,74,52,9.19,broken clouds
